City_ID,City,Country,Date,Lat,Lng,Max Temp,Humidity,Cloudiness,Wind Speed,Current Description
0,Punta Arenas,CL,2021-09-23 01:13:28,-53.15,-70.9167,41.11,70,0,17.27,clear sky
1,Rikitea,PF,2021-09-23 01:15:53,-23.1203,-134.9692,74.08,74,0,19.84,light rain
2,Airai,TL,2021-09-23 01:15:53,-8.9266,125.4092,72.54,33,44,5.01,scattered clouds
3,Castro,BR,2021-09-23 01:15:53,-24.7911,-50.0119,48.06,89,95,9.57,overcast clouds
4,Bredasdorp,ZA,2021-09-23 01:15:55,-34.5322,20.0403,58.28,93,0,5.75,clear sky
5,Green Valley,US,2021-09-23 01:15:55,31.8543,-110.9937,92.14,29,100,8.75,overcast clouds
6,Vaini,TO,2021-09-23 01:15:55,-21.2,-175.2,78.96,89,40,10.36,scattered clouds
7,Byron Bay,AU,2021-09-23 01:11:34,-28.65,153.6167,75.06,45,0,5.28,clear sky
8,Busselton,AU,2021-09-23 01:15:56,-33.65,115.3333,62.1,75,0,12.24,clear sky
9,Hobart,AU,2021-09-23 01:15:56,-42.8794,147.3294,62.46,63,75,3.0,broken clouds
10,Hermanus,ZA,2021-09-23 01:15:56,-34.4187,19.2345,58.8,55,6,6.13,clear sky
11,Barrow,US,2021-09-23 01:15:57,71.2906,-156.7887,32.02,69,90,16.11,overcast clouds
12,Lebu,CL,2021-09-23 01:15:57,-37.6167,-73.65,48.83,82,79,4.52,broken clouds
13,Smithers,CA,2021-09-23 01:11:51,54.7804,-127.1743,52.39,53,99,7.31,overcast clouds
14,Carnarvon,AU,2021-09-23 01:15:58,-24.8667,113.6333,71.67,73,58,11.5,broken clouds
15,Gemena,CD,2021-09-23 01:15:58,3.25,19.7667,69.44,99,100,2.55,overcast clouds
16,Bonito,BR,2021-09-23 01:15:59,-21.1211,-56.4819,78.4,44,100,3.4,overcast clouds
17,Qostanay,KZ,2021-09-23 01:15:59,53.1667,63.5833,30.49,93,40,4.47,scattered clouds
18,Meulaboh,ID,2021-09-23 01:10:29,4.1363,96.1285,77.45,85,80,3.67,broken clouds
19,Olafsvik,IS,2021-09-23 01:15:59,64.8945,-23.7142,42.13,61,6,3.56,clear sky
20,Khatanga,RU,2021-09-23 01:16:00,71.9667,102.5,34.93,99,100,4.16,overcast clouds
21,Avarua,CK,2021-09-23 01:16:00,-21.2078,-159.775,75.25,60,20,9.22,few clouds
22,Bluff,NZ,2021-09-23 01:16:00,-46.6,168.3333,57.79,73,79,8.97,broken clouds
23,Ushuaia,AR,2021-09-23 01:13:53,-54.8,-68.3,38.86,87,20,0.0,light rain
24,Upernavik,GL,2021-09-23 01:12:28,72.7868,-56.1549,21.99,85,99,5.06,overcast clouds
25,Atuona,PF,2021-09-23 01:16:01,-9.8,-139.0333,78.12,72,0,17.98,clear sky
26,Lorengau,PG,2021-09-23 01:12:56,-2.0226,147.2712,82.54,77,82,10.69,broken clouds
27,Puyang,CN,2021-09-23 01:16:02,29.4603,119.8861,81.41,68,5,2.24,clear sky
28,Kapaa,US,2021-09-23 01:16:02,22.0752,-159.319,84.18,71,20,5.01,few clouds
29,Port Elizabeth,ZA,2021-09-23 01:16:02,-33.918,25.5701,59.29,88,0,9.22,clear sky
30,Ribeira Grande,PT,2021-09-23 01:16:03,38.5167,-28.7,71.4,76,13,14.09,few clouds
31,New Norfolk,AU,2021-09-23 01:16:03,-42.7826,147.0587,62.1,60,100,4.0,overcast clouds
32,Saint-Philippe,RE,2021-09-23 01:16:04,-21.3585,55.7679,67.55,85,71,10.29,light rain
33,Polonne,UA,2021-09-23 01:16:04,50.1242,27.5109,41.68,94,100,8.88,overcast clouds
34,Narsaq,GL,2021-09-23 01:16:04,60.9167,-46.05,39.42,89,100,3.27,light rain
35,Katherine,AU,2021-09-23 01:16:05,-14.4667,132.2667,79.12,9,0,16.11,clear sky
36,Hasaki,JP,2021-09-23 01:16:05,35.7333,140.8333,84.6,73,7,7.9,clear sky
37,Juba,SS,2021-09-23 01:16:05,4.8517,31.5825,71.35,82,22,3.0,few clouds
38,Thompson,CA,2021-09-23 01:15:05,55.7435,-97.8558,56.07,61,100,3.09,overcast clouds
39,Klaksvik,FO,2021-09-23 01:16:06,62.2266,-6.589,45.52,75,100,22.26,overcast clouds
40,Lavrentiya,RU,2021-09-23 01:16:06,65.5833,-171.0,34.45,54,79,3.24,broken clouds
41,Esperance,AU,2021-09-23 01:16:07,-33.8667,121.9,62.06,72,8,8.5,clear sky
42,Saskylakh,RU,2021-09-23 01:16:07,71.9167,114.0833,34.86,99,100,3.74,light rain
43,Codrington,AU,2021-09-23 01:16:07,-38.2667,141.9667,62.49,55,0,16.08,clear sky
44,Namibe,AO,2021-09-23 01:06:14,-15.1961,12.1522,62.15,90,13,4.25,few clouds
45,Namatanai,PG,2021-09-23 01:16:08,-3.6667,152.4333,83.41,72,81,6.08,light rain
46,Evensk,RU,2021-09-23 01:16:08,61.95,159.2333,48.49,73,92,0.81,overcast clouds
47,Poum,NC,2021-09-23 01:16:09,-20.2333,164.0167,71.76,63,13,23.11,few clouds
48,Albany,US,2021-09-23 01:14:46,42.6001,-73.9662,73.67,82,54,11.43,broken clouds
49,Arraial Do Cabo,BR,2021-09-23 01:11:12,-22.9661,-42.0278,67.17,59,84,12.53,broken clouds
50,Kargasok,RU,2021-09-23 01:16:09,59.0556,80.8572,33.15,90,100,6.46,overcast clouds
51,Ust-Karsk,RU,2021-09-23 01:16:10,52.7011,118.8077,54.19,93,100,3.8,overcast clouds
52,Tommot,RU,2021-09-23 01:16:10,58.9564,126.2925,46.0,87,100,3.91,overcast clouds
53,Butaritari,KI,2021-09-23 01:16:10,3.0707,172.7902,83.01,66,98,12.77,overcast clouds
54,Inverell,AU,2021-09-23 01:16:11,-29.7833,151.1167,69.12,43,0,4.0,clear sky
55,Cabo San Lucas,MX,2021-09-23 01:16:11,22.8909,-109.9124,88.52,72,40,10.36,scattered clouds
56,Kincardine,GB,2021-09-23 01:16:12,56.0667,-3.7167,56.55,92,100,16.69,overcast clouds
57,Mataura,NZ,2021-09-23 01:16:12,-46.1927,168.8643,57.47,40,100,4.25,overcast clouds
58,Mahebourg,MU,2021-09-23 01:16:13,-20.4081,57.7,70.09,78,75,10.36,broken clouds
59,Palafrugell,ES,2021-09-23 01:16:13,41.9174,3.1631,63.72,94,3,3.0,clear sky
60,Saint George,US,2021-09-23 01:16:13,37.1041,-113.5841,93.67,12,1,1.01,clear sky
61,Nanortalik,GL,2021-09-23 01:16:14,60.1432,-45.2371,43.2,99,100,8.63,light rain
62,Bambous Virieux,MU,2021-09-23 01:16:14,-20.3428,57.7575,70.05,78,75,10.36,broken clouds
63,Tori,EE,2021-09-23 01:16:14,58.4825,24.8152,37.67,94,60,2.55,broken clouds
64,Robertsport,LR,2021-09-23 01:16:15,6.7533,-11.3686,76.8,89,100,3.0,moderate rain
65,Ancud,CL,2021-09-23 01:16:15,-41.8697,-73.8203,50.43,85,99,15.19,overcast clouds
66,Puerto Ayora,EC,2021-09-23 01:16:15,-0.7393,-90.3518,69.33,89,81,9.28,broken clouds
67,Billings,US,2021-09-23 01:13:09,45.7833,-108.5007,78.57,21,40,10.36,scattered clouds
68,Hamilton,US,2021-09-23 01:15:45,39.1834,-84.5333,56.03,94,90,5.01,mist
69,Port Alfred,ZA,2021-09-23 01:16:16,-33.5906,26.891,60.55,77,100,16.8,overcast clouds
70,Coquimbo,CL,2021-09-23 01:16:16,-29.9533,-71.3436,55.13,66,0,3.44,clear sky
71,Sitka,US,2021-09-23 01:14:29,57.0531,-135.33,51.69,58,90,8.05,overcast clouds
72,Broager,DK,2021-09-23 01:16:17,54.8874,9.681,60.49,83,75,9.22,broken clouds
73,Tuktoyaktuk,CA,2021-09-23 01:16:17,69.4541,-133.0374,35.6,75,90,11.5,overcast clouds
74,Omsukchan,RU,2021-09-23 01:16:17,62.5333,155.8,45.91,62,87,3.74,overcast clouds
75,Russell,US,2021-09-23 01:16:18,32.3502,-85.1999,69.08,82,1,5.75,clear sky
76,Jamestown,US,2021-09-23 01:16:18,42.097,-79.2353,70.07,98,90,7.0,light rain
77,Geilo,NO,2021-09-23 01:16:19,60.5333,8.2076,46.71,92,93,7.02,overcast clouds
78,Touros,BR,2021-09-23 01:16:19,-5.1989,-35.4608,79.7,83,11,9.44,few clouds
79,Ketchikan,US,2021-09-23 01:16:20,55.3422,-131.6461,54.07,71,75,8.05,light rain
80,Vila Franca Do Campo,PT,2021-09-23 01:16:20,37.7167,-25.4333,66.61,75,58,7.58,broken clouds
81,Sarangani,PH,2021-09-23 01:16:20,5.4033,125.4636,82.17,71,49,4.16,scattered clouds
82,Yuzhno-Kurilsk,RU,2021-09-23 01:16:21,44.0306,145.8556,65.05,92,100,6.87,overcast clouds
83,Ponta Do Sol,PT,2021-09-23 01:16:21,32.6667,-17.1,70.72,65,100,4.56,overcast clouds
84,Faya,SA,2021-09-23 01:16:21,18.3851,42.4509,63.12,33,8,1.25,clear sky
85,Antofagasta,CL,2021-09-23 01:07:17,-23.65,-70.4,56.48,74,23,7.94,few clouds
86,Fortuna,US,2021-09-23 01:16:22,40.5982,-124.1573,81.48,59,13,3.0,few clouds
87,Riverton,US,2021-09-23 01:16:22,40.5219,-111.9391,76.15,30,1,1.99,clear sky
88,Komsomolskiy,UZ,2021-09-23 01:16:22,40.4272,71.7189,58.42,51,0,4.61,clear sky
89,Geraldton,AU,2021-09-23 01:11:23,-28.7667,114.6,68.41,40,0,11.5,clear sky
90,Lompoc,US,2021-09-23 01:16:23,34.6391,-120.4579,80.74,83,75,13.8,broken clouds
91,Umm Lajj,SA,2021-09-23 01:16:23,25.0213,37.2685,83.19,68,1,6.4,clear sky
92,Grand Gaube,MU,2021-09-23 01:16:24,-20.0064,57.6608,70.2,77,3,5.01,clear sky
93,Atambua,ID,2021-09-23 01:16:24,-9.1061,124.8925,83.89,40,46,4.63,scattered clouds
94,Yulara,AU,2021-09-23 01:16:24,-25.2406,130.9889,66.04,20,7,14.97,clear sky
95,Lodja,CD,2021-09-23 01:16:25,-3.4833,23.4333,70.57,85,99,2.86,overcast clouds
96,Bengkulu,ID,2021-09-23 01:16:25,-3.8004,102.2655,76.87,89,64,2.39,light rain
97,Caravelas,BR,2021-09-23 01:16:25,-17.7125,-39.2481,73.15,63,100,14.54,overcast clouds
98,Chuy,UY,2021-09-23 01:16:26,-33.6971,-53.4616,53.73,83,100,6.58,overcast clouds
99,Torbay,CA,2021-09-23 01:15:05,47.6666,-52.7314,62.28,83,100,4.0,overcast clouds
100,Port Blair,IN,2021-09-23 01:16:26,11.6667,92.75,79.63,84,97,10.6,overcast clouds
101,Salalah,OM,2021-09-23 01:16:27,17.0151,54.0924,80.69,83,75,3.44,broken clouds
102,San Quintin,MX,2021-09-23 01:10:24,30.4833,-115.95,74.91,72,3,12.21,clear sky
103,At-Bashi,KG,2021-09-23 01:16:27,41.1702,75.8106,44.2,43,2,0.74,clear sky
104,Hun,LY,2021-09-23 01:16:27,29.1268,15.9477,82.0,18,0,8.14,clear sky
105,Bethel,US,2021-09-23 01:12:13,41.3712,-73.414,74.98,89,90,1.99,overcast clouds
106,Tiksi,RU,2021-09-23 01:16:28,71.6872,128.8694,39.74,67,100,3.78,overcast clouds
107,Hofn,IS,2021-09-23 01:16:28,64.2539,-15.2082,40.68,59,0,11.23,clear sky
108,Sidi Ali,DZ,2021-09-23 01:16:29,36.0998,0.4206,71.26,76,0,4.83,clear sky
109,Ipixuna,BR,2021-09-23 01:16:29,-1.7625,-48.8043,78.75,86,12,7.07,few clouds
110,Gore,NZ,2021-09-23 01:16:29,-46.1028,168.9436,57.22,44,100,4.43,overcast clouds
111,Gwanda,ZW,2021-09-23 01:16:30,-20.9333,29.0,52.36,90,5,6.58,clear sky
112,Cape Town,ZA,2021-09-23 01:15:15,-33.9258,18.4232,57.88,65,0,3.0,clear sky
113,Deputatskiy,RU,2021-09-23 01:10:19,69.3,139.9,35.64,69,100,1.57,overcast clouds
114,Talnakh,RU,2021-09-23 01:16:30,69.4865,88.3972,31.78,82,53,5.37,broken clouds
115,Otrado-Kubanskoye,RU,2021-09-23 01:16:31,45.2442,40.8408,52.5,76,100,5.1,overcast clouds
116,Belmonte,BR,2021-09-23 01:11:35,-15.8631,-38.8828,73.9,75,93,15.3,overcast clouds
117,Yellowknife,CA,2021-09-23 01:14:10,62.456,-114.3525,51.24,78,100,4.83,overcast clouds
118,Hailun,CN,2021-09-23 01:16:31,47.45,126.9333,57.15,66,5,5.88,clear sky
119,Ahipara,NZ,2021-09-23 01:16:32,-35.1667,173.1667,57.72,86,83,16.37,broken clouds
120,Saldanha,ZA,2021-09-23 01:16:32,-33.0117,17.9442,59.74,65,0,9.1,clear sky
121,Provideniya,RU,2021-09-23 01:16:33,64.3833,-173.3,39.31,48,40,6.71,scattered clouds
122,Qaanaaq,GL,2021-09-23 01:16:33,77.484,-69.3632,11.5,57,7,7.83,clear sky
123,Lubao,PH,2021-09-23 01:16:33,14.9167,120.55,89.15,77,100,3.11,overcast clouds
124,Belyy Yar,RU,2021-09-23 01:10:11,53.6039,91.3903,40.89,75,0,4.47,clear sky
125,Waipawa,NZ,2021-09-23 01:16:34,-41.4122,175.5153,61.93,73,100,9.1,overcast clouds
126,Souillac,MU,2021-09-23 01:16:34,-20.5167,57.5167,70.18,78,75,10.36,broken clouds
127,Kulu,TR,2021-09-23 01:16:34,39.0951,33.0799,57.29,47,100,4.68,overcast clouds
128,Leningradskiy,RU,2021-09-23 01:16:35,69.3833,178.4167,27.21,69,100,3.44,overcast clouds
129,Hervey Bay,AU,2021-09-23 01:16:35,-25.2986,152.8535,76.03,61,49,10.42,scattered clouds
130,Victoria,HK,2021-09-23 01:15:05,22.2855,114.1577,86.32,80,98,1.01,light rain
131,Hithadhoo,MV,2021-09-23 01:16:35,-0.6,73.0833,83.26,73,98,16.04,overcast clouds
132,Asasa,ET,2021-09-23 01:16:36,7.1,39.2,52.79,89,46,1.45,scattered clouds
133,Longyearbyen,SJ,2021-09-23 01:16:36,78.2186,15.6401,46.24,71,75,11.5,light intensity drizzle
134,Antibes,FR,2021-09-23 01:16:36,43.5624,7.1278,70.11,80,0,8.05,clear sky
135,Northam,GB,2021-09-23 01:16:37,51.0333,-4.2167,60.62,86,55,7.7,broken clouds
136,San Patricio,US,2021-09-23 01:16:37,28.017,-97.5169,81.84,33,6,7.27,clear sky
137,Lasa,IT,2021-09-23 01:06:47,46.6166,10.7002,48.61,58,9,1.86,clear sky
138,Toowoomba,AU,2021-09-23 01:16:38,-27.55,151.9667,66.25,36,0,2.84,clear sky
139,Bonavista,CA,2021-09-23 01:16:38,48.6499,-53.1147,63.12,79,85,9.57,overcast clouds
140,Teya,RU,2021-09-23 01:16:38,60.3778,92.6267,31.5,91,100,7.76,overcast clouds
141,Ostersund,SE,2021-09-23 01:16:39,63.1792,14.6357,43.25,100,90,0.0,light rain
142,Hilo,US,2021-09-23 01:06:23,19.7297,-155.09,82.13,70,1,4.61,clear sky
143,Djibo,BF,2021-09-23 01:16:39,14.1022,-1.6306,82.44,59,100,18.68,overcast clouds
144,Mehran,IR,2021-09-23 01:16:40,33.1222,46.1646,72.88,17,0,5.37,clear sky
145,Newport,GB,2021-09-23 01:14:31,51.5877,-2.9984,61.34,93,89,7.38,overcast clouds
146,Tchibanga,GA,2021-09-23 01:16:40,-2.85,11.0333,71.4,94,100,4.23,overcast clouds
147,Fredericksburg,US,2021-09-23 01:16:40,38.3032,-77.4605,75.42,86,90,1.01,overcast clouds
148,Georgetown,MY,2021-09-23 01:14:25,5.4112,100.3354,83.89,73,20,0.0,few clouds
149,Primorsko-Akhtarsk,RU,2021-09-23 01:16:41,46.0497,38.1747,54.45,70,100,3.2,light rain
150,Luderitz,NA,2021-09-23 01:16:41,-26.6481,15.1594,55.45,90,2,1.57,clear sky
151,Chokurdakh,RU,2021-09-23 01:16:42,70.6333,147.9167,32.58,64,100,3.18,overcast clouds
152,Pangnirtung,CA,2021-09-23 01:13:10,66.1451,-65.7125,30.38,63,13,2.1,few clouds
153,Cherskiy,RU,2021-09-23 01:16:42,68.75,161.3,32.86,84,100,7.31,light snow
154,Rafai,CF,2021-09-23 01:16:42,4.95,23.9167,67.57,98,98,0.07,light rain
155,Sao Joao Da Barra,BR,2021-09-23 01:12:18,-21.6403,-41.0511,66.9,59,0,16.28,clear sky
156,Kuito,AO,2021-09-23 01:16:43,-12.3833,16.9333,62.96,26,100,4.05,overcast clouds
157,Porbandar,IN,2021-09-23 01:16:43,21.6422,69.6093,79.88,81,27,9.53,scattered clouds
158,Dikson,RU,2021-09-23 01:16:44,73.5069,80.5464,34.95,95,100,8.61,overcast clouds
159,Mazagao,BR,2021-09-23 01:16:44,-0.115,-51.2894,86.05,81,40,6.24,scattered clouds
160,Onega,RU,2021-09-23 01:16:44,63.9061,38.1404,35.6,93,18,7.27,few clouds
161,Southbridge,US,2021-09-23 01:16:45,42.0751,-72.0334,71.92,98,100,1.99,overcast clouds
162,Cockburn Town,TC,2021-09-23 01:16:45,21.4612,-71.1419,82.87,77,100,11.27,overcast clouds
163,Mwene-Ditu,CD,2021-09-23 01:16:45,-7.0,23.45,71.85,58,70,1.9,broken clouds
164,East London,ZA,2021-09-23 01:16:46,-33.0153,27.9116,60.73,76,100,18.7,overcast clouds
165,Qasigiannguit,GL,2021-09-23 01:10:45,68.8193,-51.1922,12.0,86,9,5.23,clear sky
166,Kabalo,CD,2021-09-23 01:16:46,-6.05,26.9167,78.94,55,98,3.31,overcast clouds
167,Tasiilaq,GL,2021-09-23 01:16:46,65.6145,-37.6368,32.16,70,48,6.35,scattered clouds
168,Padre Bernardo,BR,2021-09-23 01:16:47,-15.35,-48.5,87.17,19,91,1.57,overcast clouds
169,Mosquera,CO,2021-09-23 01:16:47,4.7059,-74.2302,53.69,94,75,2.3,drizzle
170,Srednekolymsk,RU,2021-09-23 01:11:25,67.45,153.6833,39.45,51,15,6.6,few clouds
171,Kodiak,US,2021-09-23 01:16:48,57.79,-152.4072,49.51,62,90,19.57,overcast clouds
172,Parana,AR,2021-09-23 01:16:48,-31.732,-60.5238,58.55,80,24,9.84,few clouds
173,Guerrero Negro,MX,2021-09-23 01:16:48,27.9769,-114.0611,77.31,71,25,15.52,scattered clouds
174,San Cristobal,VE,2021-09-23 01:12:55,7.7669,-72.225,68.18,97,84,2.57,broken clouds
175,Cairns,AU,2021-09-23 01:16:49,-16.9167,145.7667,81.07,56,90,19.57,overcast clouds
176,Bartlesville,US,2021-09-23 01:16:49,36.7473,-95.9808,71.31,50,0,7.61,clear sky
177,Pangkalanbuun,ID,2021-09-23 01:16:49,-2.6833,111.6167,83.59,68,47,5.03,scattered clouds
178,Usinsk,RU,2021-09-23 01:16:50,65.9939,57.5281,32.32,84,3,3.51,clear sky
179,Ondjiva,AO,2021-09-23 01:16:50,-17.0667,15.7333,71.62,20,100,3.89,overcast clouds
180,Lerwick,GB,2021-09-23 01:16:51,60.1545,-1.1494,51.8,90,100,29.8,overcast clouds
181,Loudi,CN,2021-09-23 01:16:51,27.7344,111.9944,82.04,59,0,3.09,clear sky
182,Pevek,RU,2021-09-23 01:16:51,69.7008,170.3133,29.43,65,100,7.67,overcast clouds
183,Frutal,BR,2021-09-23 01:16:52,-20.0247,-48.9406,74.07,38,0,13.87,clear sky
184,Gushikawa,JP,2021-09-23 01:16:52,26.3544,127.8686,86.0,76,1,6.91,clear sky
185,San Rafael,AR,2021-09-23 01:10:10,-34.6177,-68.3301,64.33,37,0,3.98,clear sky
186,Abashiri,JP,2021-09-23 01:16:52,44.0213,144.2697,73.69,73,75,8.05,broken clouds
187,Bandarbeyla,SO,2021-09-23 01:10:12,9.4942,50.8122,77.63,76,35,22.62,scattered clouds
188,Katsuura,JP,2021-09-23 01:16:53,35.1333,140.3,84.31,72,12,16.98,few clouds
189,Mahenge,TZ,2021-09-23 01:16:53,-8.6833,36.7167,59.2,84,13,1.21,few clouds
190,Hakkari,TR,2021-09-23 01:16:54,37.5833,44.1667,49.93,41,0,3.33,clear sky
191,Necochea,AR,2021-09-23 01:16:54,-38.5473,-58.7368,51.04,81,100,8.08,light rain
192,Lagoa,PT,2021-09-23 01:16:54,39.05,-27.9833,69.57,73,0,12.41,clear sky
193,Huanren,CN,2021-09-23 01:16:55,41.2647,125.3667,55.89,97,100,1.92,overcast clouds
194,Iizuka,JP,2021-09-23 01:16:55,33.6333,130.6833,84.0,69,57,6.8,broken clouds
195,Mar Del Plata,AR,2021-09-23 01:16:55,-38.0023,-57.5575,53.62,82,90,9.22,light rain
196,Port Hardy,CA,2021-09-23 01:15:04,50.6996,-127.4199,53.6,76,100,10.92,overcast clouds
197,Kamaishi,JP,2021-09-23 01:16:56,39.2667,141.8833,72.55,66,0,5.79,clear sky
198,Turkistan,KZ,2021-09-23 01:16:56,43.0,68.0,58.35,24,3,5.28,clear sky
199,Cueramaro,MX,2021-09-23 01:16:57,20.6167,-101.7167,69.22,71,73,5.75,broken clouds
200,Port Hueneme,US,2021-09-23 01:16:57,34.1478,-119.1951,94.24,66,1,5.75,clear sky
201,Shingu,JP,2021-09-23 01:16:57,33.7333,135.9833,81.59,44,0,0.67,clear sky
202,Cidreira,BR,2021-09-23 01:16:58,-30.1811,-50.2056,62.4,69,94,17.22,overcast clouds
203,Nerchinskiy Zavod,RU,2021-09-23 01:16:58,51.3088,119.61,54.1,68,100,5.08,overcast clouds
204,Bakel,SN,2021-09-23 01:16:58,14.905,-12.4568,83.34,71,98,10.51,overcast clouds
205,Sabha,LY,2021-09-23 01:10:51,27.0377,14.4283,81.54,14,0,7.9,clear sky
206,Bubaque,GW,2021-09-23 01:16:59,11.2833,-15.8333,81.54,81,100,7.31,overcast clouds
207,Kutum,SD,2021-09-23 01:16:59,14.2,24.6667,80.01,45,100,10.27,overcast clouds
208,Paamiut,GL,2021-09-23 01:17:00,61.994,-49.6678,34.05,81,92,10.8,overcast clouds
209,Beloha,MG,2021-09-23 01:17:00,-25.1667,45.05,66.87,82,100,9.66,overcast clouds
210,Kruisfontein,ZA,2021-09-23 01:17:00,-34.0033,24.7314,58.37,52,100,5.73,overcast clouds
211,Saint-Pierre,RE,2021-09-23 01:17:01,-21.3393,55.4781,67.64,65,20,6.91,few clouds
212,Goulburn,AU,2021-09-23 01:17:01,-34.75,149.7167,63.59,63,1,16.96,clear sky
213,Adrar,MR,2021-09-23 01:17:01,20.5022,-10.0711,88.18,19,69,13.33,broken clouds
214,Tornio,FI,2021-09-23 01:17:02,65.8481,24.1466,46.42,78,100,20.49,light rain
215,Ystad,SE,2021-09-23 01:17:02,55.4297,13.8204,58.98,94,100,17.34,overcast clouds
216,Stokmarknes,NO,2021-09-23 01:17:02,68.5646,14.9108,50.38,79,68,17.16,broken clouds
217,Hirara,JP,2021-09-23 01:17:03,24.8,125.2833,86.27,74,40,5.75,scattered clouds
218,La Ronge,CA,2021-09-23 01:17:03,55.1001,-105.2842,57.42,76,90,2.3,overcast clouds
219,Tongren,CN,2021-09-23 01:17:04,27.7172,109.1853,80.19,78,0,2.28,clear sky
220,Ankazoabo,MG,2021-09-23 01:17:04,-22.2833,44.5167,62.22,84,1,9.01,clear sky
221,Staryy Nadym,RU,2021-09-23 01:17:04,65.6118,72.6842,38.97,94,100,13.47,light rain
222,Grand Forks,US,2021-09-23 01:15:07,47.9417,-97.4337,66.78,42,20,10.36,few clouds
223,Workington,GB,2021-09-23 01:17:05,54.6425,-3.5441,60.48,96,100,16.04,overcast clouds
224,Gornozavodsk,RU,2021-09-23 01:17:05,58.3758,58.3211,30.87,94,20,2.24,few clouds
225,Oriximina,BR,2021-09-23 01:17:06,-1.7656,-55.8661,80.38,62,100,5.99,overcast clouds
226,Severo-Kurilsk,RU,2021-09-23 01:17:06,50.6789,156.125,48.36,94,100,13.78,light rain
227,Rorvik,NO,2021-09-23 01:17:06,64.8621,11.2373,50.38,75,100,15.93,overcast clouds
228,Karangasem,ID,2021-09-23 01:17:07,-8.45,115.6167,81.48,77,61,6.08,broken clouds
229,Pangody,RU,2021-09-23 01:17:07,65.85,74.4859,36.43,98,100,7.83,light rain
230,Chapais,CA,2021-09-23 01:10:35,49.7834,-74.8492,42.66,80,100,6.51,overcast clouds
231,Sri Aman,MY,2021-09-23 01:17:07,1.2376,111.4621,82.45,89,20,1.14,few clouds
232,Quelimane,MZ,2021-09-23 01:17:08,-17.8786,36.8883,69.12,87,25,3.53,light rain
233,San Luis,AR,2021-09-23 01:17:08,-33.295,-66.3356,57.76,54,9,7.65,clear sky
234,Mehamn,NO,2021-09-23 01:17:08,71.0357,27.8492,46.09,85,100,14.54,light rain
235,Nokaneng,BW,2021-09-23 01:17:09,-19.6667,22.2667,64.15,59,55,11.95,broken clouds
236,Fairbanks,US,2021-09-23 01:15:37,64.8378,-147.7164,41.0,52,20,2.3,few clouds
237,Acari,PE,2021-09-23 01:17:09,-15.4311,-74.6158,64.67,81,59,3.51,broken clouds
238,Amboasary,MG,2021-09-23 01:17:09,-25.0333,46.3833,70.27,81,100,7.99,light rain
239,Boyolangu,ID,2021-09-23 01:17:10,-8.1181,111.8935,80.1,77,89,4.21,overcast clouds
240,Hambantota,LK,2021-09-23 01:17:10,6.1241,81.1185,79.93,81,6,13.87,clear sky
241,Otukpo,NG,2021-09-23 01:17:11,7.1913,8.1329,71.19,98,100,1.16,overcast clouds
242,Babanka,UA,2021-09-23 01:17:11,48.7097,30.4483,43.47,86,100,8.57,overcast clouds
243,Benghazi,LY,2021-09-23 01:13:35,32.1167,20.0667,80.98,52,6,7.43,clear sky
244,Fort Nelson,CA,2021-09-23 01:17:11,58.8053,-122.7002,49.59,43,20,11.5,few clouds
245,Pidhorodne,UA,2021-09-23 01:17:12,48.5753,35.1068,45.64,87,100,3.89,overcast clouds
246,Inta,RU,2021-09-23 01:17:12,66.0317,60.1659,32.68,91,5,4.61,clear sky
247,Boyuibe,BO,2021-09-23 01:17:13,-20.4167,-63.2833,67.53,57,100,0.81,overcast clouds
248,Pisco,PE,2021-09-23 01:17:13,-13.7,-76.2167,61.02,82,52,17.27,broken clouds
249,Kavaratti,IN,2021-09-23 01:17:13,10.5669,72.642,82.15,76,100,17.05,overcast clouds
250,Berezovyy,RU,2021-09-23 01:17:14,51.6667,135.7,53.8,46,2,4.7,clear sky
251,Clyde River,CA,2021-09-23 01:17:14,70.4692,-68.5914,30.02,90,100,14.92,light snow
252,Lake Charles,US,2021-09-23 01:15:54,30.2131,-93.2044,71.6,57,1,4.61,clear sky
253,Neryungri,RU,2021-09-23 01:17:15,56.6709,124.6491,50.72,70,100,4.12,overcast clouds
254,Nemuro,JP,2021-09-23 01:17:15,43.3236,145.575,73.83,89,82,11.79,broken clouds
255,Honningsvag,NO,2021-09-23 01:17:16,70.9821,25.9704,47.37,84,100,22.86,light rain
256,Charters Towers,AU,2021-09-23 01:17:16,-20.1,146.2667,73.26,32,2,15.93,clear sky
257,Westport,US,2021-09-23 01:17:16,41.1415,-73.3579,76.24,90,90,3.0,overcast clouds
258,Mangaldai,IN,2021-09-23 01:17:17,26.4333,92.0333,80.51,90,18,4.88,few clouds
259,Pansemal,IN,2021-09-23 01:17:17,21.65,74.7,74.05,96,76,4.65,broken clouds
260,Husavik,IS,2021-09-23 01:17:17,66.0449,-17.3389,35.51,83,62,7.56,broken clouds
261,Port Hedland,AU,2021-09-23 01:11:14,-20.3167,118.5667,80.65,8,100,11.5,overcast clouds
262,Cao Bang,VN,2021-09-23 01:17:18,22.6667,106.25,78.13,88,19,0.58,few clouds
263,Alcacer Do Sal,PT,2021-09-23 01:17:18,38.3733,-8.5144,66.02,80,10,5.17,moderate rain
264,Okhotsk,RU,2021-09-23 01:17:18,59.3833,143.3,53.82,62,1,1.54,clear sky
265,Oktyabrskoye,RU,2021-09-23 01:17:19,43.0645,44.7417,51.94,100,100,4.47,mist
266,Batagay-Alyta,RU,2021-09-23 01:17:19,67.8006,130.4114,35.83,87,85,2.08,overcast clouds
267,Burnie,AU,2021-09-23 01:09:57,-41.0667,145.9167,54.7,81,100,19.01,overcast clouds
268,Port Lincoln,AU,2021-09-23 01:17:20,-34.7333,135.8667,63.57,52,0,12.75,clear sky
269,Finspang,SE,2021-09-23 01:17:20,58.7058,15.7674,56.71,90,100,7.36,overcast clouds
270,Mogzon,RU,2021-09-23 01:17:20,51.7435,111.9606,38.43,96,100,9.8,overcast clouds
271,Makakilo City,US,2021-09-23 01:13:58,21.3469,-158.0858,86.32,50,40,11.5,scattered clouds
272,Teeli,RU,2021-09-23 01:17:21,51.0333,90.2333,37.38,58,46,0.36,scattered clouds
273,Chara,RU,2021-09-23 01:10:39,56.9064,118.2631,39.69,83,100,1.45,overcast clouds
274,Norman Wells,CA,2021-09-23 01:13:10,65.282,-126.8329,34.38,97,100,14.5,light rain
275,Haputale,LK,2021-09-23 01:17:21,6.7681,80.9595,62.92,81,15,4.07,few clouds
276,Muros,ES,2021-09-23 01:17:22,42.7762,-9.0603,62.83,76,5,13.38,clear sky
277,Kudahuvadhoo,MV,2021-09-23 01:17:22,2.6708,72.8944,82.58,75,100,14.07,overcast clouds
278,Nazarovo,RU,2021-09-23 01:17:22,56.0064,90.3914,35.69,97,100,2.86,overcast clouds
279,Sovetskaya,RU,2021-09-23 01:17:23,44.7769,41.1722,50.63,80,100,4.99,overcast clouds
280,Ligayan,PH,2021-09-23 01:17:23,4.6533,119.4706,82.8,68,79,5.01,broken clouds
281,Ballina,AU,2021-09-23 01:17:23,-28.8667,153.5667,73.58,46,0,4.07,clear sky
282,Maltahohe,NA,2021-09-23 01:17:24,-24.8333,16.9833,61.27,20,6,4.85,clear sky
283,Krutaya Gorka,RU,2021-09-23 01:17:24,55.3649,73.2231,29.88,96,89,6.2,overcast clouds
284,Puerto Rico,AR,2021-09-23 01:17:24,-26.796,-55.024,64.18,68,82,1.23,broken clouds
285,Broken Hill,AU,2021-09-23 01:17:25,-31.95,141.4333,64.4,42,0,3.53,clear sky
286,Salinopolis,BR,2021-09-23 01:17:25,-0.6136,-47.3561,80.94,79,25,11.3,scattered clouds
287,Margate,GB,2021-09-23 01:17:25,51.3813,1.3862,56.91,83,75,1.99,broken clouds
288,Nizhniy Kuranakh,RU,2021-09-23 01:17:26,58.8353,125.4869,43.38,91,100,2.64,overcast clouds
289,Ko Samui,TH,2021-09-23 01:14:24,9.5357,99.9357,82.09,73,100,11.3,overcast clouds
290,Kiruna,SE,2021-09-23 01:17:26,67.8557,20.2251,43.72,93,90,13.8,overcast clouds
291,San Javier,ES,2021-09-23 01:17:27,37.8063,-0.8374,73.24,75,40,3.0,scattered clouds
292,Paka,MY,2021-09-23 01:17:27,4.6374,103.4368,80.53,94,40,0.0,scattered clouds
293,Mackenzie,CA,2021-09-23 01:15:07,55.2999,-123.1698,54.34,43,23,10.49,few clouds
294,Batemans Bay,AU,2021-09-23 01:10:19,-35.7167,150.1833,69.98,36,0,5.39,clear sky
295,Rio Grande,BR,2021-09-23 01:11:33,-32.035,-52.0986,60.33,70,100,16.82,overcast clouds
296,Zemlyansk,RU,2021-09-23 01:17:28,51.9041,38.7334,46.04,89,100,3.98,overcast clouds
297,Svetlogorsk,BY,2021-09-23 01:17:28,52.6333,29.7333,41.2,96,100,5.99,light rain
298,Isangel,VU,2021-09-23 01:17:28,-19.55,169.2667,77.11,88,90,0.0,overcast clouds
299,Te Anau,NZ,2021-09-23 01:17:29,-45.4167,167.7167,60.22,68,40,3.96,scattered clouds
300,Gat,IL,2021-09-23 01:17:29,31.61,34.7642,75.88,100,0,6.46,clear sky
301,Brae,GB,2021-09-23 01:17:29,60.3964,-1.353,51.71,91,100,25.3,overcast clouds
302,Anadyr,RU,2021-09-23 01:17:30,64.75,177.4833,34.3,80,90,13.42,light snow
303,Olinda,BR,2021-09-23 01:17:30,-8.0089,-34.8553,76.73,78,40,6.91,scattered clouds
304,Cuamba,MZ,2021-09-23 01:17:30,-14.8031,36.5372,65.97,74,0,6.78,clear sky
305,Ballitoville,ZA,2021-09-23 01:17:31,-29.539,31.2144,58.24,82,0,6.91,clear sky
306,Kirkwall,GB,2021-09-23 01:11:03,58.9848,-2.9587,52.97,87,75,28.77,light rain
307,Giyani,ZA,2021-09-23 01:17:31,-23.3025,30.7187,56.39,80,0,5.32,clear sky
308,Nikolskoye,RU,2021-09-23 01:17:32,59.7035,30.7861,46.02,84,100,3.62,light rain
309,Kefalos,GR,2021-09-23 01:17:32,36.7453,26.9589,71.82,68,0,9.22,clear sky
310,Port Pirie,AU,2021-09-23 01:17:32,-33.1833,138.0167,71.69,52,0,8.39,clear sky
311,Arman,RU,2021-09-23 01:17:33,59.7,150.1667,51.39,58,16,3.33,few clouds
312,Sorland,NO,2021-09-23 01:17:33,67.667,12.6934,49.5,78,100,27.09,overcast clouds
313,Sao Filipe,CV,2021-09-23 01:17:33,14.8961,-24.4956,78.93,80,24,4.88,few clouds
314,Matnog,PH,2021-09-23 01:17:33,12.5878,124.0875,83.61,69,100,0.98,overcast clouds
315,Mangrol,IN,2021-09-23 01:11:31,21.1167,70.1167,80.31,79,98,9.69,overcast clouds
316,Ende,ID,2021-09-23 01:17:34,-8.8432,121.6623,85.78,53,58,4.43,broken clouds
317,Moa,CU,2021-09-23 01:17:34,20.6569,-74.9403,80.38,86,100,5.19,overcast clouds
318,Nome,US,2021-09-23 01:15:18,64.5011,-165.4064,39.27,49,90,6.91,overcast clouds
319,Constitucion,CL,2021-09-23 01:17:35,-35.3333,-72.4167,49.96,85,87,9.06,overcast clouds
320,Ojinaga,MX,2021-09-23 01:17:35,29.5667,-104.4167,83.35,21,1,6.91,clear sky
321,Kharp,RU,2021-09-23 01:17:35,66.8014,65.8081,33.78,89,14,9.53,few clouds
322,Nefteyugansk,RU,2021-09-23 01:17:36,61.0998,72.6035,35.85,98,100,10.31,overcast clouds
323,Svobodnyy,RU,2021-09-23 01:17:36,51.4,128.1333,51.44,54,2,5.1,clear sky
324,Gadwal,IN,2021-09-23 01:17:36,16.2333,77.8,73.94,91,100,9.6,overcast clouds
325,Takoradi,GH,2021-09-23 01:17:37,4.8845,-1.7554,76.08,93,100,5.79,overcast clouds
326,Waingapu,ID,2021-09-23 01:17:37,-9.6567,120.2641,84.9,59,32,17.76,scattered clouds
327,Douentza,ML,2021-09-23 01:17:37,14.9951,-2.9517,88.47,40,100,11.61,overcast clouds
328,Banda Aceh,ID,2021-09-23 01:10:32,5.5577,95.3222,80.55,68,100,4.74,overcast clouds
329,Labuhan,ID,2021-09-23 01:08:38,-6.8844,112.2051,84.27,67,100,13.62,overcast clouds
330,Solanea,BR,2021-09-23 01:17:38,-6.755,-35.54,69.67,96,17,1.83,few clouds
331,Burns Lake,CA,2021-09-23 01:17:38,54.2331,-125.7533,53.02,41,100,11.92,overcast clouds
332,Buala,SB,2021-09-23 01:17:39,-8.145,159.5921,84.07,70,38,4.7,light rain
333,Puerto Escondido,MX,2021-09-23 01:17:39,15.85,-97.0667,85.03,61,75,0.0,broken clouds
334,Zhenlai,CN,2021-09-23 01:17:39,45.8495,123.2973,59.23,77,0,7.99,clear sky
335,Puerto Maldonado,PE,2021-09-23 01:17:40,-12.6,-69.1833,78.44,58,100,2.33,overcast clouds
336,Taoudenni,ML,2021-09-23 01:17:40,22.6783,-3.9836,94.84,9,0,9.35,clear sky
337,Arrifes,PT,2021-09-23 01:17:40,37.7667,-25.7,64.65,82,20,6.91,few clouds
338,Kavieng,PG,2021-09-23 01:17:41,-2.5744,150.7967,81.59,78,100,8.93,light rain
339,Matara,LK,2021-09-23 01:17:41,5.9485,80.5353,77.92,88,22,8.34,few clouds
340,Sun Valley,US,2021-09-23 01:17:41,39.5963,-119.776,79.75,23,75,5.99,smoke
341,Taltal,CL,2021-09-23 01:17:42,-25.4,-70.4833,60.04,65,0,3.98,clear sky
342,Dnestrovsc,MD,2021-09-23 01:17:42,46.6222,29.9133,46.76,80,100,14.05,overcast clouds
343,Bichena,ET,2021-09-23 01:17:43,10.45,38.2,51.46,86,100,2.3,overcast clouds
344,Shirokiy,RU,2021-09-23 01:17:43,49.758,129.523,55.17,51,0,6.82,clear sky
345,Ostrovnoy,RU,2021-09-23 01:17:43,68.0531,39.5131,39.04,82,2,18.75,clear sky
346,Maragogi,BR,2021-09-23 01:17:44,-9.0122,-35.2225,76.35,91,18,6.96,few clouds
347,Richards Bay,ZA,2021-09-23 01:17:44,-28.783,32.0377,57.88,79,0,7.85,clear sky
348,Bad Hofgastein,AT,2021-09-23 01:17:44,47.1667,13.1,46.83,97,32,0.81,scattered clouds
349,Cervo,ES,2021-09-23 01:17:45,43.6702,-7.4101,59.2,90,30,10.58,scattered clouds
350,Acapulco,MX,2021-09-23 01:13:55,16.8634,-99.8901,84.02,84,75,6.91,broken clouds
351,Matagami,CA,2021-09-23 01:17:45,49.7502,-77.6328,44.71,81,75,5.75,broken clouds
352,Dongsheng,CN,2021-09-23 01:17:45,39.8161,109.9776,61.47,58,9,7.16,clear sky
353,Barguzin,RU,2021-09-23 01:17:46,53.6167,109.6167,42.96,90,100,3.15,overcast clouds
354,Lethem,GY,2021-09-23 01:17:46,3.3803,-59.7968,77.9,80,100,5.37,overcast clouds
355,Pontes E Lacerda,BR,2021-09-23 01:13:19,-15.2261,-59.3353,82.85,36,0,4.59,clear sky
356,Juliaca,PE,2021-09-23 01:17:46,-15.5,-70.1333,46.49,64,100,7.87,overcast clouds
357,Starkville,US,2021-09-23 01:15:09,33.4504,-88.8184,63.79,84,0,5.82,clear sky
358,Farafangana,MG,2021-09-23 01:11:21,-22.8167,47.8333,69.78,83,77,5.59,broken clouds
359,Bayir,TR,2021-09-23 01:17:47,37.2687,28.2167,55.92,59,8,5.5,clear sky
360,Karachi,PK,2021-09-23 01:17:44,24.9056,67.0822,82.22,78,20,8.05,few clouds
361,Vestmannaeyjar,IS,2021-09-23 01:17:47,63.4427,-20.2734,42.48,58,27,11.77,scattered clouds
362,Amahai,ID,2021-09-23 01:17:48,-3.3333,128.9167,79.95,84,100,5.82,light rain
363,Awbari,LY,2021-09-23 01:17:48,26.5921,12.7805,80.37,15,0,6.02,clear sky
364,Ambositra,MG,2021-09-23 01:17:48,-20.5167,47.25,56.68,89,100,3.8,overcast clouds
365,Catonsville,US,2021-09-23 01:17:49,39.272,-76.7319,74.86,95,90,8.99,light rain
366,Bay Roberts,CA,2021-09-23 01:17:49,47.5999,-53.2648,63.03,82,100,4.0,overcast clouds
367,Goderich,CA,2021-09-23 01:11:14,43.7501,-81.7165,54.91,94,100,37.87,light rain
368,Iquique,CL,2021-09-23 01:16:07,-20.2208,-70.1431,59.04,74,100,0.58,overcast clouds
369,Mandalgovi,MN,2021-09-23 01:17:50,45.7625,106.2708,48.04,53,100,15.01,overcast clouds
370,Galle,LK,2021-09-23 01:17:50,6.0367,80.217,79.09,86,28,9.33,scattered clouds
371,Normandin,CA,2021-09-23 01:17:50,48.8333,-72.5321,48.33,93,100,10.36,moderate rain
372,Ilulissat,GL,2021-09-23 01:17:51,69.2167,-51.1,8.2,76,16,7.4,few clouds
373,Gaya,IN,2021-09-23 01:15:37,24.7833,85.0,76.68,92,71,6.44,broken clouds
374,Kiama,AU,2021-09-23 01:17:51,-34.6833,150.8667,75.38,51,5,1.01,clear sky
375,Nelson Bay,AU,2021-09-23 01:17:52,-32.7167,152.15,75.29,48,5,1.99,clear sky
376,Melbu,NO,2021-09-23 01:17:52,68.5044,14.8297,50.22,79,82,16.67,broken clouds
377,Dingle,PH,2021-09-23 01:17:52,10.9995,122.6711,82.54,77,100,1.28,overcast clouds
378,Conde,BR,2021-09-23 01:17:53,-7.2597,-34.9075,76.46,94,20,4.61,few clouds
379,Tuy Hoa,VN,2021-09-23 01:17:53,13.0833,109.3,74.77,96,100,5.88,heavy intensity rain
380,Tuban,ID,2021-09-23 01:17:53,-6.8976,112.0649,83.57,69,100,12.46,overcast clouds
381,Monrovia,LR,2021-09-23 01:17:54,6.3005,-10.7969,77.13,87,100,3.76,moderate rain
382,Dunedin,NZ,2021-09-23 01:17:54,-45.8742,170.5036,58.8,60,11,10.0,few clouds
383,Vlore,AL,2021-09-23 01:17:54,40.4667,19.4897,62.92,58,100,6.29,overcast clouds
384,Lagdo,CM,2021-09-23 01:17:55,9.05,13.7333,70.45,98,100,2.42,overcast clouds
385,Atar,MR,2021-09-23 01:12:57,20.5169,-13.0499,90.09,19,5,7.96,clear sky
386,Karagaylinskiy,RU,2021-09-23 01:17:55,54.172,86.5521,36.25,99,100,3.56,light rain
387,Katangli,RU,2021-09-23 01:17:56,51.7102,143.2326,53.94,66,11,15.3,few clouds
388,Palmi,IT,2021-09-23 01:17:56,38.3653,15.8615,70.88,81,12,3.06,few clouds
389,Barberino Di Mugello,IT,2021-09-23 01:17:56,44.0027,11.2371,60.87,76,95,8.01,overcast clouds
390,Jiaocheng,CN,2021-09-23 01:17:57,24.6774,116.1389,83.28,74,100,1.79,overcast clouds
391,Sembe,CG,2021-09-23 01:08:17,1.6481,14.5806,68.58,99,100,1.3,overcast clouds
392,Altay,CN,2021-09-23 01:17:57,47.8667,88.1167,43.47,25,98,3.11,overcast clouds
393,Muisne,EC,2021-09-23 01:17:57,0.6,-80.0333,73.92,87,100,7.05,overcast clouds
394,Lucapa,AO,2021-09-23 01:17:58,-8.4192,20.7447,70.05,52,100,1.72,overcast clouds
395,Serra,BR,2021-09-23 01:17:58,-20.1286,-40.3078,69.26,64,75,16.11,broken clouds
396,Vao,NC,2021-09-23 01:17:58,-22.6667,167.4833,68.86,61,5,20.65,clear sky
397,Laramie,US,2021-09-23 01:14:22,41.3114,-105.5911,65.08,24,1,1.99,clear sky
398,Porto Belo,BR,2021-09-23 01:18:00,-27.1578,-48.5531,64.35,67,100,4.81,overcast clouds
399,Koshurnikovo,RU,2021-09-23 01:18:00,54.1667,93.3,34.14,97,100,2.66,light rain
400,Harrisburg,US,2021-09-23 01:18:01,40.2737,-76.8844,75.49,87,90,5.99,overcast clouds
401,Jinka,ET,2021-09-23 01:18:01,5.65,36.65,66.47,65,85,3.22,overcast clouds
402,Havelock,US,2021-09-23 01:18:01,34.8791,-76.9013,78.94,93,90,1.01,overcast clouds
403,Laguna,US,2021-09-23 01:18:02,38.421,-121.4238,96.31,22,1,4.0,clear sky
404,Zhigansk,RU,2021-09-23 01:18:02,66.7697,123.3711,41.25,93,100,14.07,light rain
405,Chodavaram,IN,2021-09-23 01:18:02,17.8333,82.95,80.44,90,59,1.66,broken clouds
406,Varnamo,SE,2021-09-23 01:18:03,57.186,14.04,57.76,92,100,1.99,overcast clouds
407,Odesskoye,RU,2021-09-23 01:18:03,54.2111,72.9651,34.3,94,74,6.87,broken clouds
408,Iqaluit,CA,2021-09-23 01:18:04,63.7506,-68.5145,33.53,75,90,8.05,overcast clouds
409,Mount Isa,AU,2021-09-23 01:18:04,-20.7333,139.5,76.77,12,0,16.11,clear sky
410,Balykshi,KZ,2021-09-23 01:18:04,47.0667,51.8667,64.4,22,40,22.37,scattered clouds
411,Mvomero,TZ,2021-09-23 01:18:05,-6.25,38.6667,69.1,97,27,3.56,scattered clouds
412,Fenoarivo Atsinanana,MG,2021-09-23 01:18:05,-17.3667,49.4167,68.68,80,54,3.18,broken clouds
413,Haileybury,CA,2021-09-23 01:18:05,47.449,-79.6373,48.78,67,100,11.18,overcast clouds
414,Rabo De Peixe,PT,2021-09-23 01:10:57,37.8,-25.5833,65.71,82,20,8.05,few clouds
415,Turan,VN,2021-09-23 01:14:54,16.0678,108.2208,80.58,83,75,0.0,broken clouds
416,Solnechnyy,RU,2021-09-23 01:18:06,50.7214,136.6319,50.34,52,3,8.28,clear sky
417,Groa,NO,2021-09-23 01:18:07,62.65,8.7167,48.29,92,100,0.43,overcast clouds
418,Mirabad,AF,2021-09-23 01:18:07,30.4362,61.8383,75.24,19,0,9.8,clear sky
419,Trincomalee,LK,2021-09-23 01:18:07,8.5711,81.2335,79.56,82,25,15.77,scattered clouds
420,Nagua,DO,2021-09-23 01:18:07,19.3832,-69.8474,82.45,92,100,2.75,overcast clouds
421,Salacgriva,LV,2021-09-23 01:18:08,57.7536,24.3581,38.89,82,93,2.66,overcast clouds
422,Savannah Bight,HN,2021-09-23 01:18:08,16.45,-85.85,84.0,72,4,5.14,clear sky
423,Tuatapere,NZ,2021-09-23 01:18:08,-46.1333,167.6833,57.81,58,86,2.1,overcast clouds
424,Ler,SS,2021-09-23 01:18:09,8.3018,30.1418,72.32,94,40,2.3,scattered clouds
425,Partenit,UA,2021-09-23 01:18:09,44.578,34.3446,53.94,72,100,5.88,overcast clouds
426,Puerto Palomas,MX,2021-09-23 01:18:09,31.7667,-107.6167,79.93,29,100,8.05,overcast clouds
427,Tilichiki,RU,2021-09-23 01:10:40,60.4667,166.1,47.1,78,100,1.25,overcast clouds
428,Kaitangata,NZ,2021-09-23 01:18:10,-46.2817,169.8464,61.56,45,94,1.36,overcast clouds
429,Sterling,US,2021-09-23 01:18:10,39.0062,-77.4286,73.98,94,90,3.0,overcast clouds
430,Kulhudhuffushi,MV,2021-09-23 01:11:16,6.6221,73.07,82.96,76,100,14.61,overcast clouds
431,Mortka,RU,2021-09-23 01:18:11,59.3322,66.0214,37.35,92,91,3.47,overcast clouds
432,Gonaives,HT,2021-09-23 01:18:11,19.45,-72.6833,81.05,81,100,3.11,overcast clouds
433,Diego De Almagro,CL,2021-09-23 01:18:11,-26.3667,-70.05,58.23,38,0,1.99,clear sky
434,Andreapol,RU,2021-09-23 01:18:12,56.6513,32.2664,38.7,99,100,2.39,overcast clouds
435,Perigueux,FR,2021-09-23 01:18:12,45.1833,0.7167,55.08,80,11,2.28,few clouds
436,Falmouth,GB,2021-09-23 01:18:12,50.1544,-5.0711,59.9,77,90,5.75,overcast clouds
437,Brigantine,US,2021-09-23 01:18:13,39.4101,-74.3646,75.4,90,20,12.66,few clouds
438,Manjacaze,MZ,2021-09-23 01:18:13,-24.7117,33.8828,57.99,78,2,3.6,clear sky
439,Urumqi,CN,2021-09-23 01:15:45,43.801,87.6005,52.75,30,0,4.47,clear sky
440,Dingli,MT,2021-09-23 01:18:14,35.8614,14.3822,73.81,83,20,6.91,few clouds
441,Masvingo,ZW,2021-09-23 01:18:14,-20.0637,30.8277,56.25,78,55,8.23,broken clouds
442,Balikpapan,ID,2021-09-23 01:18:14,-1.2675,116.8289,83.39,84,20,2.3,few clouds
443,Kapoeta,SS,2021-09-23 01:18:15,4.7717,33.5903,75.9,61,76,3.56,broken clouds
444,Leshukonskoye,RU,2021-09-23 01:18:15,64.8989,45.7622,34.52,97,5,4.68,clear sky
445,Abu Samrah,SY,2021-09-23 01:18:15,35.3029,37.1841,69.87,82,0,8.48,clear sky
446,Boras,SE,2021-09-23 01:18:16,57.721,12.9401,57.83,94,100,10.76,overcast clouds
447,Malm,NO,2021-09-23 01:18:16,64.0721,11.2172,49.78,86,100,6.62,overcast clouds
448,Haapiti,PF,2021-09-23 01:18:16,-17.5667,-149.8667,80.33,70,0,9.57,light rain
449,Den Helder,NL,2021-09-23 01:18:17,52.9599,4.7593,62.58,88,90,14.97,overcast clouds
450,Orlik,RU,2021-09-23 01:18:17,52.5178,99.825,36.36,45,85,1.86,overcast clouds
451,Bonneville,FR,2021-09-23 01:18:17,46.0802,6.4073,62.58,94,46,1.86,scattered clouds
452,Terrace,CA,2021-09-23 01:18:18,54.5163,-128.6035,54.43,58,75,11.5,light rain
453,Dreznica,BA,2021-09-23 01:18:18,43.5289,17.2819,47.62,82,8,8.23,clear sky
454,Thinadhoo,MV,2021-09-23 01:18:18,0.5333,72.9333,84.07,71,100,16.4,overcast clouds
455,Tadine,NC,2021-09-23 01:11:10,-21.55,167.8833,71.62,67,99,18.1,overcast clouds
456,Amapa,BR,2021-09-23 01:18:19,1.0,-52.0,71.4,97,90,2.98,overcast clouds
457,Haines Junction,CA,2021-09-23 01:18:19,60.7522,-137.5108,37.35,60,100,3.44,light rain
458,Aklavik,CA,2021-09-23 01:18:19,68.2191,-135.0107,36.43,69,100,10.51,overcast clouds
459,Snasa,NO,2021-09-23 01:18:20,64.2457,12.3778,45.97,93,100,3.42,overcast clouds
460,Baisha,CN,2021-09-23 01:18:20,26.5222,110.9311,83.66,71,6,2.06,clear sky
461,Mendeleyevsk,RU,2021-09-23 01:18:20,55.9082,52.2905,49.24,78,100,6.89,overcast clouds
462,Sayyan,YE,2021-09-23 01:18:21,15.1718,44.3244,59.72,30,52,4.83,broken clouds
463,Bonnyville,CA,2021-09-23 01:18:21,54.2668,-110.735,62.4,48,80,6.73,broken clouds
464,Kloulklubed,PW,2021-09-23 01:11:32,7.0419,134.2556,77.5,77,67,7.65,heavy intensity rain
465,Tazovskiy,RU,2021-09-23 01:09:36,67.4667,78.7,30.6,81,10,10.94,clear sky
466,Brownsville,US,2021-09-23 01:18:22,25.9018,-97.4975,75.18,80,75,4.61,broken clouds
467,Baculin,PH,2021-09-23 01:18:22,7.4525,126.5842,85.01,64,68,4.12,broken clouds
468,Melo,UY,2021-09-23 01:18:22,-32.3667,-54.1833,52.23,84,100,11.07,overcast clouds
469,Sur,OM,2021-09-23 01:18:23,22.5667,59.5289,85.05,62,82,8.59,broken clouds
470,Coihaique,CL,2021-09-23 01:18:23,-45.5752,-72.0662,49.95,76,90,5.75,light rain
471,Ajdabiya,LY,2021-09-23 01:18:23,30.7554,20.2263,81.41,31,0,7.0,clear sky
472,Belebey,RU,2021-09-23 01:18:24,54.1167,54.1167,47.71,80,100,7.02,light rain
473,Marigot,MF,2021-09-23 01:18:24,18.0667,-63.0833,82.74,83,20,4.61,few clouds
474,Riyadh,SA,2021-09-23 01:14:06,24.6877,46.7219,75.34,20,10,6.02,clear sky
475,Ahmadpur,IN,2021-09-23 01:18:25,18.7,76.9333,71.73,97,100,9.06,overcast clouds
476,Molteno,ZA,2021-09-23 01:18:25,-31.3968,26.3625,53.87,44,100,10.92,overcast clouds
477,Kalaleh,IR,2021-09-23 01:18:25,37.3807,55.4916,73.96,60,2,1.21,clear sky
478,Tura,IN,2021-09-23 01:18:26,25.5198,90.2201,73.13,92,100,2.62,overcast clouds
479,Valdivia,CL,2021-09-23 01:15:19,-39.8142,-73.2459,42.89,98,89,0.87,overcast clouds
480,Toki,JP,2021-09-23 01:18:26,35.35,137.1833,75.09,60,0,3.47,clear sky
481,Kolosovka,RU,2021-09-23 01:18:26,56.4678,73.611,34.41,98,99,4.05,overcast clouds
482,Los Llanos De Aridane,ES,2021-09-23 01:18:05,28.6585,-17.9182,69.55,73,0,14.97,clear sky
483,Kaihua,CN,2021-09-23 01:18:27,23.3687,104.28,66.96,86,44,4.41,scattered clouds
484,Gorom-Gorom,BF,2021-09-23 01:18:27,14.4439,-0.2361,82.98,59,100,16.6,overcast clouds
485,Elliot Lake,CA,2021-09-23 01:15:31,46.3834,-82.6331,48.29,66,100,14.47,overcast clouds
486,Biak,ID,2021-09-23 01:11:27,-0.9131,122.8766,79.32,78,65,7.11,broken clouds
487,Shimoda,JP,2021-09-23 01:18:28,34.6667,138.95,82.76,59,4,15.14,clear sky
488,Egvekinot,RU,2021-09-23 01:18:28,66.3167,-179.1667,25.56,73,100,3.47,overcast clouds
489,Ambo,PE,2021-09-23 01:18:29,-10.1308,-76.2047,60.1,83,100,1.01,overcast clouds
490,Taguatinga,BR,2021-09-23 01:18:29,-12.3857,-46.5711,87.08,19,71,2.95,broken clouds
491,Rawson,AR,2021-09-23 01:18:29,-43.3002,-65.1023,62.1,36,6,11.74,clear sky
492,Kysyl-Syr,RU,2021-09-23 01:18:30,63.8986,122.7617,43.7,77,52,6.53,broken clouds
493,Zhangjiakou,CN,2021-09-23 01:18:30,40.81,114.8794,65.03,61,6,4.21,clear sky
494,Puri,IN,2021-09-23 01:18:30,19.8,85.85,81.12,79,100,8.97,overcast clouds
495,Vieques,PR,2021-09-23 01:18:31,18.425,-65.8329,84.22,74,20,0.0,few clouds
496,Huarmey,PE,2021-09-23 01:18:31,-10.0681,-78.1522,63.68,85,98,11.01,overcast clouds
497,Elliot,ZA,2021-09-23 01:18:31,-31.3333,27.85,53.56,39,12,7.36,few clouds
498,Mount Gambier,AU,2021-09-23 01:18:32,-37.8333,140.7667,62.35,52,0,14.12,clear sky
499,Boppard,DE,2021-09-23 01:18:32,50.2308,7.5899,56.19,85,18,4.03,few clouds
500,Nishihara,JP,2021-09-23 01:07:45,26.1842,127.7558,85.66,79,20,9.22,few clouds
501,Sistranda,NO,2021-09-23 01:10:23,63.7256,8.834,49.89,77,100,21.25,overcast clouds
502,Vostok,RU,2021-09-23 01:18:33,46.4856,135.8833,47.48,93,100,7.63,light rain
503,Oulainen,FI,2021-09-23 01:18:33,64.2667,24.8,46.26,71,100,10.31,overcast clouds
504,Nyeri,KE,2021-09-23 01:18:33,-0.4201,36.9476,57.2,97,95,6.49,light rain
505,Durres,AL,2021-09-23 01:18:34,41.3231,19.4414,57.38,55,86,12.5,overcast clouds
506,Velingara,SN,2021-09-23 01:18:34,13.15,-14.1167,76.01,96,100,4.83,light rain
507,San Policarpo,PH,2021-09-23 01:18:35,12.1791,125.5072,81.86,79,100,1.68,overcast clouds
508,Tobol,KZ,2021-09-23 01:18:35,52.6844,62.5794,38.57,82,9,6.93,clear sky
509,Imeni Stepana Razina,RU,2021-09-23 01:18:35,54.8932,44.2963,47.55,91,100,10.71,overcast clouds
510,San Severino Marche,IT,2021-09-23 01:18:36,43.2281,13.1802,60.37,83,39,1.52,scattered clouds
511,Inirida,CO,2021-09-23 01:18:36,3.8653,-67.9239,74.3,96,100,1.01,moderate rain
512,Santa Cruz Del Sur,CU,2021-09-23 01:18:36,20.7147,-77.9956,80.1,79,6,7.56,clear sky
513,Bowen,AU,2021-09-23 01:18:37,-20.0167,148.2333,73.47,50,100,19.46,overcast clouds
514,Balsas,BR,2021-09-23 01:18:37,-7.5325,-46.0356,85.08,29,29,1.72,scattered clouds
515,Montego Bay,JM,2021-09-23 01:18:30,18.4712,-77.9188,82.2,83,20,4.61,few clouds
516,Genhe,CN,2021-09-23 01:18:37,50.7833,121.5167,54.21,53,63,3.83,broken clouds
517,Sinnamary,GF,2021-09-23 01:18:38,5.3833,-52.95,80.53,85,38,11.03,scattered clouds
518,Hudson Bay,CA,2021-09-23 01:18:38,52.85,-102.3842,63.91,40,51,3.83,broken clouds
519,Chiang Klang,TH,2021-09-23 01:18:39,19.2938,100.8617,76.33,97,90,1.21,overcast clouds
520,Puerto Del Rosario,ES,2021-09-23 01:18:39,28.5004,-13.8627,71.35,73,100,9.22,overcast clouds
521,Iquitos,PE,2021-09-23 01:18:39,-3.7481,-73.2472,77.04,88,75,3.44,broken clouds
522,Port Hawkesbury,CA,2021-09-23 01:18:40,45.6169,-61.3485,63.7,93,1,3.0,clear sky
523,Carleton Place,CA,2021-09-23 01:18:27,45.1334,-76.1494,67.75,95,100,2.53,overcast clouds
524,Doha,QA,2021-09-23 01:16:54,25.2867,51.5333,84.18,55,0,5.75,clear sky
525,Dzerzhinskoye,RU,2021-09-23 01:18:41,56.8344,95.2283,37.08,92,100,3.44,overcast clouds
526,Ponta Delgada,PT,2021-09-23 01:18:41,37.7333,-25.6667,66.92,82,20,6.91,few clouds
527,Jiuquan,CN,2021-09-23 01:18:41,39.7432,98.5174,60.8,33,100,7.11,overcast clouds
528,Shache,CN,2021-09-23 01:18:42,38.4167,77.2406,66.38,20,0,6.55,clear sky
529,Bathsheba,BB,2021-09-23 01:18:42,13.2167,-59.5167,83.01,74,20,11.5,few clouds
530,Kahului,US,2021-09-23 01:18:22,20.8947,-156.47,85.26,71,40,25.32,scattered clouds
531,Colac,AU,2021-09-23 01:18:43,-38.3333,143.5833,59.16,54,0,14.9,clear sky
532,Vilhena,BR,2021-09-23 01:10:29,-12.7406,-60.1458,78.89,34,0,3.96,clear sky
533,Turukhansk,RU,2021-09-23 01:11:17,65.8167,87.9833,32.97,99,100,6.04,light snow
534,Port-Gentil,GA,2021-09-23 01:18:44,-0.7193,8.7815,78.84,84,100,11.23,overcast clouds
535,Phan Thiet,VN,2021-09-23 01:18:44,10.9333,108.1,76.95,90,100,7.18,overcast clouds
536,Mogadishu,SO,2021-09-23 01:15:21,2.0371,45.3438,77.09,89,34,17.13,scattered clouds
537,Port Augusta,AU,2021-09-23 01:18:45,-32.5,137.7667,71.74,40,0,8.03,clear sky
538,Pyaozerskiy,RU,2021-09-23 01:18:45,65.8333,31.1667,33.49,93,94,6.46,overcast clouds
539,Orel-Izumrud,RU,2021-09-23 01:18:45,43.4583,39.9244,57.22,82,90,6.71,overcast clouds
540,Ulladulla,AU,2021-09-23 01:18:46,-35.35,150.4667,71.1,40,4,3.31,clear sky
541,Krasnoselkup,RU,2021-09-23 01:08:09,65.7,82.4667,33.55,86,100,14.92,overcast clouds
542,Marsa Matruh,EG,2021-09-23 01:18:46,31.3525,27.2453,75.4,88,0,8.05,clear sky
543,Hudiksvall,SE,2021-09-23 01:18:47,61.729,17.1036,53.53,92,100,9.75,light rain
544,Manzhouli,CN,2021-09-23 01:18:47,49.6,117.4333,54.52,70,100,17.18,overcast clouds
545,Pacific Grove,US,2021-09-23 01:18:04,36.6177,-121.9166,84.81,81,1,3.0,clear sky
546,Lata,PT,2021-09-23 01:18:47,40.1629,-8.3327,64.81,83,100,4.54,light rain
547,Imeni Poliny Osipenko,RU,2021-09-23 01:18:48,52.4201,136.4853,52.47,49,7,8.05,clear sky
548,Igrim,RU,2021-09-23 01:18:48,63.1906,64.4162,35.53,93,59,3.69,broken clouds
549,Dire,ML,2021-09-23 01:18:48,12.2833,-10.9667,74.41,94,32,2.68,scattered clouds
550,Raudeberg,NO,2021-09-23 01:18:49,61.9875,5.1352,52.47,87,100,7.0,overcast clouds
551,Eganville,CA,2021-09-23 01:18:49,45.5334,-77.0994,51.13,99,100,8.72,overcast clouds
552,Hami,CN,2021-09-23 01:09:57,42.8,93.45,66.31,18,0,3.49,clear sky
553,Swift Current,CA,2021-09-23 01:18:49,50.2834,-107.8014,68.81,28,1,10.36,clear sky
554,Praia Da Vitoria,PT,2021-09-23 01:18:50,38.7333,-27.0667,70.05,83,40,10.36,scattered clouds
555,Saurimo,AO,2021-09-23 01:10:33,-9.6608,20.3916,65.95,20,99,4.16,overcast clouds
556,Ayotzintepec,MX,2021-09-23 01:18:50,17.6667,-96.1333,72.88,94,100,2.59,overcast clouds
557,Lewistown,US,2021-09-23 01:18:50,40.5992,-77.5714,73.94,97,100,16.37,light rain
558,Great Falls,US,2021-09-23 01:14:49,47.5002,-111.3008,74.66,23,1,9.22,clear sky
559,Mengcheng,CN,2021-09-23 01:18:51,33.2579,116.5655,79.21,67,98,8.28,light rain
560,Kenai,US,2021-09-23 01:18:51,60.5544,-151.2583,46.02,48,40,12.66,scattered clouds
561,San Jeronimo,PE,2021-09-23 01:18:52,-11.9472,-75.2829,50.94,77,100,2.93,overcast clouds
562,Sokolo,ML,2021-09-23 01:18:52,14.7328,-6.1219,84.29,55,100,9.75,overcast clouds
563,Shaunavon,CA,2021-09-23 01:18:52,49.6501,-108.4181,69.58,22,12,8.93,few clouds
564,Saint-Francois,FR,2021-09-23 01:18:53,46.4154,3.9054,47.64,100,90,3.44,fog
565,Marawi,PH,2021-09-23 01:18:53,7.9986,124.2928,71.65,71,41,2.1,scattered clouds
566,Lushoto,TZ,2021-09-23 01:18:53,-4.7833,38.2833,54.68,69,59,3.06,broken clouds
567,Jambi,ID,2021-09-23 01:11:48,-1.6,103.6167,79.39,84,100,3.96,light rain
568,Socorro,US,2021-09-23 01:18:54,31.6546,-106.3033,80.1,26,75,6.91,broken clouds
569,Boddam,GB,2021-09-23 01:18:54,57.4667,-1.7833,53.98,80,100,10.87,light rain
570,Havre-Saint-Pierre,CA,2021-09-23 01:18:55,50.2334,-63.5986,55.76,88,90,5.75,overcast clouds
571,Pristen,RU,2021-09-23 01:18:55,51.2355,36.6959,45.91,94,100,4.05,overcast clouds
572,Yeppoon,AU,2021-09-23 01:18:55,-23.1333,150.7333,74.98,56,0,9.28,clear sky
573,Bozeman,US,2021-09-23 01:09:00,45.6796,-111.0386,72.82,29,1,5.75,clear sky
574,Vilyuysk,RU,2021-09-23 01:18:56,63.7553,121.6247,43.25,76,0,7.43,clear sky
575,Penzance,GB,2021-09-23 01:18:56,50.1186,-5.5371,60.01,86,6,8.9,clear sky
576,Pinyug,RU,2021-09-23 01:18:56,60.251,47.7842,35.02,97,14,6.76,few clouds
577,Karratha,AU,2021-09-23 01:18:57,-20.7377,116.8463,81.66,18,100,15.84,light rain
578,Chifeng,CN,2021-09-23 01:18:57,42.2683,118.9636,58.68,71,0,6.98,clear sky
579,Mezhdurechensk,RU,2021-09-23 01:18:57,53.6942,88.0603,37.04,99,100,4.09,light rain
580,Maniitsoq,GL,2021-09-23 01:18:58,65.4167,-52.9,32.09,42,82,6.08,broken clouds
581,Portland,US,2021-09-23 01:16:15,45.5234,-122.6762,70.52,72,75,1.01,broken clouds
582,Sobolevo,RU,2021-09-23 01:18:58,54.4299,31.8996,38.26,97,100,2.33,overcast clouds
583,Jalu,LY,2021-09-23 01:18:58,29.0331,21.5482,81.3,28,0,8.41,clear sky
584,Sassandra,CI,2021-09-23 01:18:59,4.95,-6.0833,75.54,93,100,4.27,overcast clouds
585,College,US,2021-09-23 01:18:59,64.8569,-147.8028,42.46,52,20,2.3,few clouds
586,Sabang,ID,2021-09-23 01:18:59,5.8933,95.3214,81.18,75,100,5.32,overcast clouds
587,George Town,MY,2021-09-23 01:14:25,5.4112,100.3354,83.89,73,20,0.0,few clouds
588,Kapit,MY,2021-09-23 01:19:00,2.0167,112.9333,79.7,86,100,2.26,overcast clouds
589,Kontagora,NG,2021-09-23 01:19:00,10.3999,5.4695,71.04,94,100,0.89,light rain
590,Auki,SB,2021-09-23 01:19:01,-8.7676,160.7034,83.3,73,34,3.65,scattered clouds
591,Harper,LR,2021-09-23 01:19:00,4.375,-7.7169,77.2,88,86,6.67,light rain
592,Lincoln,US,2021-09-23 01:15:02,40.8,-96.667,65.28,47,1,1.99,clear sky
593,Zheleznodorozhnyy,RU,2021-09-23 01:08:12,55.7503,38.0042,46.62,96,100,5.64,overcast clouds
594,Gulu,UG,2021-09-23 01:19:01,2.7746,32.299,63.18,94,13,3.06,few clouds
595,Oussouye,SN,2021-09-23 01:19:02,12.485,-16.5469,80.78,91,100,4.14,overcast clouds
596,Barra Do Garcas,BR,2021-09-23 01:19:02,-15.89,-52.2567,84.87,23,17,4.05,few clouds
597,Yining,CN,2021-09-23 01:19:02,29.0361,114.5636,80.15,54,0,1.32,clear sky
598,Faanui,PF,2021-09-23 01:19:03,-16.4833,-151.75,77.2,73,12,10.27,light rain
599,Kurakh,RU,2021-09-23 01:19:03,41.5849,47.7831,52.97,89,72,0.36,broken clouds
600,Civitavecchia,IT,2021-09-23 01:19:03,42.0933,11.7967,67.82,69,6,6.22,clear sky
601,Tam Ky,VN,2021-09-23 01:19:04,15.5667,108.4833,78.78,89,100,3.74,heavy intensity rain
602,Moskovskiy,RU,2021-09-23 01:19:04,55.5991,37.355,46.18,100,75,6.71,mist
603,Mountain Home,US,2021-09-23 01:17:05,43.133,-115.6912,77.74,20,75,3.44,broken clouds
604,Manaure,CO,2021-09-23 01:10:03,11.7751,-72.4445,85.48,68,100,11.03,overcast clouds
605,Emba,KZ,2021-09-23 01:19:05,48.8264,58.1442,49.84,34,97,9.95,overcast clouds
606,Vardo,NO,2021-09-23 01:19:05,70.3705,31.1107,45.12,78,100,25.08,light rain
607,Mackay,AU,2021-09-23 01:19:06,-21.15,149.2,73.04,61,100,14.12,overcast clouds
608,Carballo,ES,2021-09-23 01:19:06,43.213,-8.691,61.86,91,17,5.53,few clouds
609,Cooma,AU,2021-09-23 01:19:06,-36.2333,149.1333,66.56,32,0,9.64,clear sky
610,Mayo,US,2021-09-23 01:19:06,38.8876,-76.5119,77.11,92,75,14.0,broken clouds
611,Grindavik,IS,2021-09-23 01:19:07,63.8424,-22.4338,39.67,81,75,8.05,broken clouds
612,Agua Dulce,MX,2021-09-23 01:18:10,18.1333,-94.1333,79.0,83,100,12.01,overcast clouds
613,Euclides Da Cunha,BR,2021-09-23 01:19:07,-10.5075,-39.0158,70.56,82,97,12.03,overcast clouds
614,Half Moon Bay,US,2021-09-23 01:18:00,37.4636,-122.4286,89.42,73,75,6.91,broken clouds
615,Homestead,US,2021-09-23 01:19:08,25.4687,-80.4776,79.02,96,90,0.0,overcast clouds
616,Vaitape,PF,2021-09-23 01:19:08,-16.5167,-151.75,77.14,74,12,10.25,light rain
617,Nador,MA,2021-09-23 01:19:08,35.174,-2.9287,71.67,84,88,9.71,overcast clouds
618,Huangmei,CN,2021-09-23 01:19:09,30.1924,116.025,81.07,60,0,4.38,light rain
619,Presidencia Roque Saenz Pena,AR,2021-09-23 01:19:09,-26.7852,-60.4388,64.51,57,67,5.77,broken clouds
620,Ivaipora,BR,2021-09-23 01:19:09,-24.2478,-51.6847,63.88,56,66,12.8,broken clouds
621,Rockhampton,AU,2021-09-23 01:19:10,-23.3833,150.5,75.09,31,0,10.36,clear sky
622,Viedma,AR,2021-09-23 01:18:00,-40.8135,-62.9967,49.71,64,0,18.66,clear sky
623,Gifhorn,DE,2021-09-23 01:19:10,52.4833,10.55,52.83,93,88,3.44,overcast clouds
624,Kurkino,RU,2021-09-23 01:19:11,53.4257,38.6582,46.31,88,100,3.49,overcast clouds
625,Barranca,PE,2021-09-23 01:19:07,-10.75,-77.7667,60.73,89,100,8.72,overcast clouds
626,Jaranwala,PK,2021-09-23 01:19:11,31.3333,73.4333,76.96,80,0,6.58,clear sky
627,Gualaquiza,EC,2021-09-23 01:19:11,-3.4,-78.55,61.7,98,100,1.36,light rain
628,Portobelo,PA,2021-09-23 01:19:12,9.55,-79.65,75.61,79,100,1.63,overcast clouds
629,Pervomayskiy,RU,2021-09-23 01:19:12,53.2485,40.2871,48.0,88,100,4.23,light rain
630,Tabuk,PH,2021-09-23 01:19:13,17.4189,121.4443,82.18,74,87,3.49,overcast clouds
631,Tarko-Sale,RU,2021-09-23 01:19:13,64.9225,77.785,34.47,74,91,12.1,overcast clouds
632,Kasama,ZM,2021-09-23 01:19:13,-10.2129,31.1808,63.09,53,26,8.75,scattered clouds
633,Douglas,US,2021-09-23 01:18:29,41.3,-96.167,64.98,56,1,0.0,clear sky
634,Namtsy,RU,2021-09-23 01:19:14,62.7161,129.6658,37.51,59,27,3.22,scattered clouds
635,Bilibino,RU,2021-09-23 01:19:14,68.0546,166.4372,30.13,85,100,5.28,light snow
636,Manama,BH,2021-09-23 01:14:57,26.2154,50.5832,87.78,43,0,4.61,clear sky
637,Seydi,TM,2021-09-23 01:19:15,39.4816,62.9137,63.82,17,0,12.1,clear sky
638,Guardiagrele,IT,2021-09-23 01:19:15,42.1954,14.2198,55.94,71,92,1.9,overcast clouds
639,Longhua,CN,2021-09-23 01:19:15,23.6137,114.1919,84.06,76,17,2.53,few clouds
640,Ahuimanu,US,2021-09-23 01:19:16,21.4447,-157.8378,87.51,58,1,16.11,clear sky
641,Sorong,ID,2021-09-23 01:19:16,-0.8833,131.25,81.95,73,100,2.84,overcast clouds
642,Camacha,PT,2021-09-23 01:19:16,33.0833,-16.3333,69.22,73,40,11.5,scattered clouds
643,Sydney,AU,2021-09-23 01:14:45,-33.8679,151.2073,77.61,46,0,1.01,clear sky
644,Independence,US,2021-09-23 01:19:17,39.0911,-94.4155,63.82,65,1,0.0,clear sky
645,Teguldet,RU,2021-09-23 01:19:17,57.3064,88.1667,29.84,92,79,1.88,broken clouds
646,Kuytun,RU,2021-09-23 01:19:17,54.3419,101.5036,37.81,80,94,3.91,overcast clouds
647,Nyurba,RU,2021-09-23 01:19:18,63.2842,118.3319,42.69,75,4,5.91,clear sky
648,Kishanpur,IN,2021-09-23 01:19:18,25.65,81.0167,77.0,89,5,7.27,clear sky
649,Gobabis,NA,2021-09-23 01:19:19,-22.45,18.9667,63.37,31,40,12.33,scattered clouds
650,Mont-Dore,NC,2021-09-23 01:19:19,-22.2833,166.5833,78.78,55,50,13.71,scattered clouds
651,Coruripe,BR,2021-09-23 01:19:19,-10.1256,-36.1756,76.93,91,9,13.06,light rain
652,Sturgeon Falls,CA,2021-09-23 01:19:20,46.3646,-79.9326,48.09,94,100,19.1,overcast clouds
653,Dwarka,IN,2021-09-23 01:19:20,22.2394,68.9678,80.89,81,98,12.64,overcast clouds
654,Bara,NG,2021-09-23 01:19:20,10.3744,10.7288,69.39,98,100,4.29,overcast clouds
655,Le Moule,GP,2021-09-23 01:19:21,16.3332,-61.3473,80.64,76,10,9.71,clear sky
656,Soloneshnoye,RU,2021-09-23 01:19:21,51.6544,84.3197,37.02,72,100,1.36,overcast clouds
657,Sungaipenuh,ID,2021-09-23 01:18:45,-2.0833,101.3833,69.69,87,100,1.59,heavy intensity rain
658,Mumford,GH,2021-09-23 01:19:21,5.2618,-0.759,76.5,90,100,4.05,overcast clouds
659,Rouvroy,FR,2021-09-23 01:19:22,50.3925,2.904,52.36,71,16,5.73,few clouds
660,Skibbereen,IE,2021-09-23 01:19:22,51.55,-9.2667,60.6,96,100,13.09,overcast clouds
661,Zyryanka,RU,2021-09-23 01:19:22,65.75,150.85,43.05,51,100,2.44,overcast clouds
662,Wilmington,US,2021-09-23 01:17:33,34.2257,-77.9447,79.86,86,20,5.75,few clouds
663,Sinop,TR,2021-09-23 01:19:23,41.7711,34.8709,48.97,97,100,5.08,light rain
664,Makrana,IN,2021-09-23 01:19:23,27.05,74.7167,76.33,88,76,9.62,broken clouds
665,Kidal,ML,2021-09-23 01:10:25,18.4411,1.4078,94.93,18,98,7.61,overcast clouds
666,Garbolovo,RU,2021-09-23 01:19:24,60.3413,30.4955,45.32,81,100,3.02,overcast clouds
667,Mahon,ES,2021-09-23 01:19:24,39.8885,4.2658,73.96,88,75,12.66,broken clouds
668,San Andres,CO,2021-09-23 01:10:48,12.5847,-81.7006,82.42,78,20,4.61,few clouds
669,Maturin,VE,2021-09-23 01:19:25,9.75,-63.1767,74.77,93,6,5.64,clear sky
670,Adre,TD,2021-09-23 01:19:25,13.4667,22.2,78.82,60,100,3.29,overcast clouds
671,Kungurtug,RU,2021-09-23 01:19:25,50.5994,97.5228,36.75,53,7,1.95,clear sky
672,Carutapera,BR,2021-09-23 01:19:26,-1.195,-46.02,80.11,75,45,9.35,scattered clouds
673,Ochakiv,UA,2021-09-23 01:17:35,46.6128,31.5498,46.54,77,100,8.9,overcast clouds
674,Carndonagh,IE,2021-09-23 01:19:26,55.25,-7.2667,53.08,89,100,17.81,overcast clouds
675,Say,NE,2021-09-23 01:19:26,13.1007,2.3689,79.36,80,100,7.78,overcast clouds
676,Baijiantan,CN,2021-09-23 01:19:27,45.6333,85.1833,54.77,30,100,8.25,overcast clouds
677,Shestakovo,RU,2021-09-23 01:19:27,56.4915,103.96,39.15,78,37,2.64,scattered clouds
678,Estelle,US,2021-09-23 01:19:27,29.8458,-90.1067,75.99,53,40,5.75,scattered clouds
679,Manaus,BR,2021-09-23 01:19:28,-3.1019,-60.025,84.69,74,0,2.3,clear sky
680,Pahrump,US,2021-09-23 01:19:28,36.2083,-115.9839,95.11,14,0,1.99,clear sky
681,Mayumba,GA,2021-09-23 01:19:28,-3.432,10.6554,75.43,84,100,4.99,overcast clouds
682,Nhulunbuy,AU,2021-09-23 01:19:29,-12.2333,136.7667,84.81,51,75,17.27,broken clouds
683,Mecca,SA,2021-09-23 01:19:30,21.4267,39.8261,86.09,48,100,2.06,overcast clouds
684,Fort Worth,US,2021-09-23 01:18:04,32.7254,-97.3208,76.37,39,1,5.75,clear sky
